{"type":"FeatureCollection","features":[{"type":"Feature","id":0,"geometry":{"type":"Point","coordinates":[-95.08908699999995,45.106714000000068]},"properties":{"FID":0,"Name":"N/A","PardonedYe":1993,"President":"Clinton","State":"MN","Town":"Willmar","Latitude":45.106713999999997,"Longitude":-95.089087000000006}},{"type":"Feature","id":1,"geometry":{"type":"Point","coordinates":[-78.871463999999946,38.398100000000056]},"properties":{"FID":1,"Name":"Tom","PardonedYe":1994,"President":"Clinton","State":"VA","Town":"Harrisonburg","Latitude":38.398099999999999,"Longitude":-78.871464000000003}},{"type":"Feature","id":2,"geometry":{"type":"Point","coordinates":[-87.913033999999982,42.631396000000052]},"properties":{"FID":2,"Name":"Carl","PardonedYe":1996,"President":"Clinton","State":"WI","Town":"Kenosha","Latitude":42.631396000000002,"Longitude":-87.913033999999996}},{"type":"Feature","id":3,"geometry":{"type":"Point","coordinates":[-79.204158999999947,34.977933000000064]},"properties":{"FID":3,"Name":"N/A","PardonedYe":1997,"President":"Clinton","State":"NC","Town":"Raeford","Latitude":34.977933,"Longitude":-79.204159000000004}},{"type":"Feature","id":4,"geometry":{"type":"Point","coordinates":[-92.894371999999976,44.151152000000025]},"properties":{"FID":4,"Name":"N/A","PardonedYe":1998,"President":"Cllinton","State":"MN","Town":"West Concord","Latitude":44.151152000000003,"Longitude":-92.894372000000004}},{"type":"Feature","id":5,"geometry":{"type":"Point","coordinates":[-95.088013999999987,45.105244000000027]},"properties":{"FID":5,"Name":"Harry","PardonedYe":1999,"President":"Clinton","State":"MN","Town":"Willmar","Latitude":45.105243999999999,"Longitude":-95.088014000000001}},{"type":"Feature","id":6,"geometry":{"type":"Point","coordinates":[-91.900690999999938,45.377964000000077]},"properties":{"FID":6,"Name":"Jerry","PardonedYe":2000,"President":"Clinton","State":"WI","Town":"Barron","Latitude":45.377963999999999,"Longitude":-91.900690999999995}},{"type":"Feature","id":7,"geometry":{"type":"Point","coordinates":[-84.586834999999951,39.037960000000055]},"properties":{"FID":7,"Name":"Liberty","PardonedYe":2001,"President":"Bush","State":"KY","Town":"N/A","Latitude":39.037959999999998,"Longitude":-84.586834999999994}},{"type":"Feature","id":8,"geometry":{"type":"Point","coordinates":[-84.585308999999938,39.037269000000038]},"properties":{"FID":8,"Name":"Freedom","PardonedYe":2001,"President":"Bush","State":"KY","Town":"N/A","Latitude":39.037269000000002,"Longitude":-84.585308999999995}},{"type":"Feature","id":9,"geometry":{"type":"Point","coordinates":[-78.331959999999981,34.953569000000073]},"properties":{"FID":9,"Name":"Katie","PardonedYe":2002,"President":"Bush","State":"NC","Town":"Clinton","Latitude":34.953569000000002,"Longitude":-78.331959999999995}},{"type":"Feature","id":10,"geometry":{"type":"Point","coordinates":[-94.341883999999936,37.214080000000024]},"properties":{"FID":10,"Name":"Stars","PardonedYe":2003,"President":"Bush","State":"MO","Town":"Carthage","Latitude":37.214080000000003,"Longitude":-94.341883999999993}},{"type":"Feature","id":11,"geometry":{"type":"Point","coordinates":[-78.855280999999934,38.87716000000006]},"properties":{"FID":11,"Name":"Biscuits","PardonedYe":2004,"President":"Bush","State":"WV","Town":"Mathias","Latitude":38.877160000000003,"Longitude":-78.855281000000005}},{"type":"Feature","id":12,"geometry":{"type":"Point","coordinates":[-95.45122699999996,46.326391000000058]},"properties":{"FID":12,"Name":"Marshmallow","PardonedYe":2005,"President":"Bush","State":"MN","Town":"Henning","Latitude":46.326391000000001,"Longitude":-95.451227000000003}},{"type":"Feature","id":13,"geometry":{"type":"Point","coordinates":[-93.893013999999937,36.903484000000049]},"properties":{"FID":13,"Name":"Flyer","PardonedYe":2006,"President":"Bush","State":"MO","Town":"Monett","Latitude":36.903483999999999,"Longitude":-93.893013999999994}},{"type":"Feature","id":14,"geometry":{"type":"Point","coordinates":[-86.796193999999957,38.440253000000041]},"properties":{"FID":14,"Name":"May","PardonedYe":2007,"President":"Bush","State":"IN","Town":"Dubois","Latitude":38.440252999999998,"Longitude":-86.796194}},{"type":"Feature","id":15,"geometry":{"type":"Point","coordinates":[-93.598437999999987,42.301651000000049]},"properties":{"FID":15,"Name":"Pumpkin","PardonedYe":2008,"President":"Bush","State":"IA","Town":"Ellsworth","Latitude":42.301651,"Longitude":-93.598438000000002}},{"type":"Feature","id":16,"geometry":{"type":"Point","coordinates":[-78.171532999999954,35.486640000000079]},"properties":{"FID":16,"Name":"Courage","PardonedYe":2009,"President":"Obama","State":"NC","Town":"Princeton","Latitude":35.486640000000001,"Longitude":-78.171532999999997}},{"type":"Feature","id":17,"geometry":{"type":"Point","coordinates":[-120.92814599999997,37.544438000000071]},"properties":{"FID":17,"Name":"Apple","PardonedYe":2010,"President":"Obama","State":"CA","Town":"Modesto","Latitude":37.544438,"Longitude":-120.928146}},{"type":"Feature","id":18,"geometry":{"type":"Point","coordinates":[-95.091915999999969,45.106192000000078]},"properties":{"FID":18,"Name":"Liberty","PardonedYe":2011,"President":"Obama","State":"MN","Town":"Willmar","Latitude":45.106192,"Longitude":-95.091915999999998}},{"type":"Feature","id":19,"geometry":{"type":"Point","coordinates":[-78.822814999999935,38.43323300000003]},"properties":{"FID":19,"Name":"Cobbler","PardonedYe":2012,"President":"Obama","State":"VA","Town":"Harrisonburg","Latitude":38.433233000000001,"Longitude":-78.822815000000006}},{"type":"Feature","id":20,"geometry":{"type":"Point","coordinates":[-78.823409999999967,38.435216000000025]},"properties":{"FID":20,"Name":"Gobbler","PardonedYe":2012,"President":"Obama","State":"VA","Town":"Harrisonburg","Latitude":38.435215999999997,"Longitude":-78.823409999999996}},{"type":"Feature","id":21,"geometry":{"type":"Point","coordinates":[-96.022153999999944,48.771114000000068]},"properties":{"FID":21,"Name":"Popcorn","PardonedYe":2013,"President":"Obama","State":"MN","Town":"Badger","Latitude":48.771113999999997,"Longitude":-96.022154}},{"type":"Feature","id":22,"geometry":{"type":"Point","coordinates":[-84.773362999999961,40.396293000000071]},"properties":{"FID":22,"Name":"Cheese","PardonedYe":2014,"President":"Obama","State":"OH","Town":"Fort Recovery","Latitude":40.396293,"Longitude":-84.773363000000003}},{"type":"Feature","id":23,"geometry":{"type":"Point","coordinates":[-81.758204999999975,36.79171800000006]},"properties":{"FID":23,"Name":"Abe","PardonedYe":2015,"President":"Obama","State":"VA","Town":"Glade Springs","Latitude":36.791718000000003,"Longitude":-81.758205000000004}},{"type":"Feature","id":24,"geometry":{"type":"Point","coordinates":[-95.154555999999957,42.667823000000055]},"properties":{"FID":24,"Name":"Tater","PardonedYe":2016,"President":"Obama","State":"IA","Town":"Storm Lake","Latitude":42.667822999999999,"Longitude":-95.154555999999999}},{"type":"Feature","id":25,"geometry":{"type":"Point","coordinates":[-95.154142999999976,42.663845000000038]},"properties":{"FID":25,"Name":"Tot","PardonedYe":2016,"President":"Obama","State":"IA","Town":"Storm Lake","Latitude":42.663845000000002,"Longitude":-95.154143000000005}},{"type":"Feature","id":26,"geometry":{"type":"Point","coordinates":[-95.348519999999951,45.888839000000075]},"properties":{"FID":26,"Name":"Drumstick","PardonedYe":2017,"President":"Trump","State":"MN","Town":"Alexandria","Latitude":45.888838999999997,"Longitude":-95.348519999999994}},{"type":"Feature","id":27,"geometry":{"type":"Point","coordinates":[-98.236950999999976,44.351118000000042]},"properties":{"FID":27,"Name":"Peas","PardonedYe":2018,"President":"Trump","State":"SD","Town":"Huron","Latitude":44.351118,"Longitude":-98.236951000000005}},{"type":"Feature","id":28,"geometry":{"type":"Point","coordinates":[-78.350541999999962,35.012754000000029]},"properties":{"FID":28,"Name":"Butter","PardonedYe":2019,"President":"Trump","State":"NC","Town":"Clinton","Latitude":35.012754000000001,"Longitude":-78.350542000000004}},{"type":"Feature","id":29,"geometry":{"type":"Point","coordinates":[-91.276399999999967,41.570724000000041]},"properties":{"FID":29,"Name":"Corn","PardonedYe":2020,"President":"Trump","State":"IA","Town":"West Liberty","Latitude":41.570723999999998,"Longitude":-91.276399999999995}},{"type":"Feature","id":30,"geometry":{"type":"Point","coordinates":[-86.908883999999944,38.396929000000057]},"properties":{"FID":30,"Name":"Peanut Butter","PardonedYe":2021,"President":"Biden","State":"IN","Town":"Jasper","Latitude":38.396929,"Longitude":-86.908884}},{"type":"Feature","id":31,"geometry":{"type":"Point","coordinates":[-86.908873999999969,38.397785000000056]},"properties":{"FID":31,"Name":"Jelly","PardonedYe":2021,"President":"Biden","State":"IN","Town":"Jasper","Latitude":38.397784999999999,"Longitude":-86.908873999999997}},{"type":"Feature","id":32,"geometry":{"type":"Point","coordinates":[-80.541847999999959,35.039053000000024]},"properties":{"FID":32,"Name":"Chocolate","PardonedYe":2022,"President":"Biden","State":"NC","Town":"Monroe","Latitude":35.039053000000003,"Longitude":-80.541848000000002}},{"type":"Feature","id":33,"geometry":{"type":"Point","coordinates":[-80.541038999999955,35.038560000000075]},"properties":{"FID":33,"Name":"Chip","PardonedYe":2022,"President":"Biden","State":"NC","Town":"Monroe","Latitude":35.038559999999997,"Longitude":-80.541038999999998}},{"type":"Feature","id":34,"geometry":{"type":"Point","coordinates":[-95.094970999999987,45.103809000000069]},"properties":{"FID":34,"Name":"Liberty","PardonedYe":2023,"President":"Biden","State":"MN","Town":"Willmar","Latitude":45.103808999999998,"Longitude":-95.094971000000001}},{"type":"Feature","id":35,"geometry":{"type":"Point","coordinates":[-95.099943999999937,45.108597000000032]},"properties":{"FID":35,"Name":"Bell","PardonedYe":2023,"President":"Biden","State":"MN","Town":"Willmar","Latitude":45.108597000000003,"Longitude":-95.099943999999994}},{"type":"Feature","id":36,"geometry":{"type":"Point","coordinates":[-93.128488999999945,44.459774000000039]},"properties":{"FID":36,"Name":"Peach","PardonedYe":2024,"President":"Biden","State":"MN","Town":"Northfield","Latitude":44.459774000000003,"Longitude":-93.128489000000002}},{"type":"Feature","id":37,"geometry":{"type":"Point","coordinates":[-93.12523699999997,44.460934000000066]},"properties":{"FID":37,"Name":"Blossom","PardonedYe":2024,"President":"Biden","State":"MN","Town":"Northfield","Latitude":44.460934000000002,"Longitude":-93.125236999999998}}]}